<?xml version="1.0" encoding="UTF-8"?>
<regioes>
	<regiao>
		<nome>Região do João Aranha</nome>
		<letra>A</letra>
		<centro>
			<latitude>-22.734746</latitude>
			<longitude>-47.175986</longitude>
		</centro>
	</regiao>
	<regiao>
		<nome>Região do Nova Veneza</nome>
		<letra>B</letra>
		<centro>
			<latitude>-22.757899</latitude>
			<longitude>-47.195991</longitude>
		</centro>
	</regiao>
	<regiao>
		<nome>Região dos Jardins dos Calegaris</nome>
		<letra>C</letra>
		<centro>
			<latitude>-22.757583</latitude>
			<longitude>-47.154449</longitude>
		</centro>
	</regiao>
	<regiao>
		<nome>Região da Vila Monte Alegre</nome>
		<letra>D</letra>
		<centro>
			<latitude>-22.776498</latitude>
			<longitude>-47.17007</longitude>
		</centro>
	</regiao>
	<regiao>
		<nome>Região do Jardim de Itapoan</nome>
		<letra>E</letra>
		<centro>
			<latitude>-22.768149</latitude>
			<longitude>-47.14852</longitude>
		</centro>
	</regiao>
	<regiao>
		<nome>Região do Morumbi</nome>
		<letra>F</letra>
		<centro>
			<latitude>-22.779426</latitude>
			<longitude>-47.13857</longitude>
		</centro>
	</regiao>
	<regiao>
		<nome>Região do Bom Retiro</nome>
		<letra>G</letra>
		<centro>
			<latitude>-22.79003</latitude>
			<longitude>-47.183546</longitude>
		</centro>
	</regiao>
	<regiao>
		<nome>Região do Parque Brasil 500</nome>
		<letra>H</letra>
		<centro>
			<latitude>-22.802057</latitude>
			<longitude>-47.135395</longitude>
		</centro>
	</regiao>
	<regiao>
		<nome>Região do Betel</nome>
		<letra>I</letra>
		<centro>
			<latitude>-22.795885</latitude>
			<longitude>-47.114881</longitude>
		</centro>
	</regiao>
</regioes>
